[
  {
    "state": "Connecticut",
    "municipality": "Sample Community",
    "name": "Josh will provide soon",
    "latitude": null,
    "longitude": null,
    "height_m": null,
    "height_ft": null,
    "what3words": "Josh will provide soon",
    "photos_link": [
      "images/dummy.jpg"
    ]
  },
  {
    "state": "Maine",
    "municipality": "Sample Community",
    "name": "Josh will provide soon",
    "latitude": null,
    "longitude": null,
    "height_m": null,
    "height_ft": null,
    "what3words": "Josh will provide soon",
    "photos_link": [
      "images/dummy.jpg"
    ]
  },
  {
    "state": "Massachusetts",
    "municipality": "Newburyport",
    "name": "Castle Hill",
    "latitude": 42.8347,
    "longitude": -70.9230,
    "height_m": 47.6,
    "height_ft": 156.2,
    "what3words": "woke.folds.violin",
    "photos_link": [
      "images/MA/Newburyport/1.jpg",
      "images/MA/Newburyport/2.jpg",
      "images/MA/Newburyport/3.jpg",
      "images/MA/Newburyport/4.jpg",
      "images/MA/Newburyport/5.jpg",
      "images/MA/Newburyport/6.jpg"
    ]
  },
  {
    "state": "Massachusetts",
    "municipality": "West Newbury",
    "name": "Brake Hill",
    "latitude": 42.7796,
    "longitude": -71.0052,
    "height_m": 78.7,
    "height_ft": 258.2,
    "what3words": "pigeons.viewfinder.commented",
    "photos_link": [
      "images/MA/West_Newbury/1.jpg",
      "images/MA/West_Newbury/2.jpg",
      "images/MA/West_Newbury/3.jpg",
      "images/MA/West_Newbury/4.jpg",
      "images/MA/West_Newbury/5.jpg"
    ]
  },
  {
    "state": "Massachusetts",
    "municipality": "Amesbury",
    "name": "Powwow Hill",
    "latitude": 42.8659,
    "longitude": -70.9382,
    "height_m": 101.1,
    "height_ft": 331.7,
    "what3words": "tall.upon.dawn",
    "photos_link": [
      "images/MA/Amesbury/1.jpg",
      "images/MA/Amesbury/2.jpg",
      "images/MA/Amesbury/3.jpg",
      "images/MA/Amesbury/4.jpg",
      "images/MA/Amesbury/5.jpg",
      "images/MA/Amesbury/6.jpg"
    ]
  },
  {
    "state": "Massachusetts",
    "municipality": "Newbury",
    "name": "Old Town Hill",
    "latitude": 42.7688,
    "longitude": -70.8497,
    "height_m": 50.9,
    "height_ft": 167.0,
    "what3words": "Josh will provide soon",
    "photos_link": [
      "images/dummy.jpg"
    ]
  },
  {
    "state": "Massachusetts",
    "municipality": "Salisbury",
    "name": "Grape Hill",
    "latitude": 42.8861,
    "longitude": -70.9093,
    "height_m": 72.2,
    "height_ft": 236.9,
    "what3words": "cowboys.cloudy.scares",
    "photos_link": [
      "images/MA/Salisbury/1.jpg",
      "images/MA/Salisbury/2.jpg",
      "images/MA/Salisbury/3.jpg",
      "images/MA/Salisbury/4.jpg",
      "images/MA/Salisbury/5.jpg"
    ]
  },
  {
    "state": "Massachusetts",
    "municipality": "Merrimac",
    "name": "Red Oak Hill",
    "latitude": 42.8436,
    "longitude": -71.0266,
    "height_m": 96.0,
    "height_ft": 315.0,
    "what3words": "Josh will provide soon",
    "photos_link": [
      "images/dummy.jpg"
    ]
  },
  {
    "state": "Massachusetts",
    "municipality": "Chelmsford",
    "name": "Robbins Hill",
    "latitude": 42.5850,
    "longitude": -71.3649,
    "height_m": 124.0,
    "height_ft": 406.8,
    "what3words": "Josh will provide soon",
    "photos_link": [
      "images/dummy.jpg"
    ]
  },
  {
    "state": "Massachusetts",
    "municipality": "Haverhill",
    "name": "Ayers Hill",
    "latitude": 42.8075,
    "longitude": -71.0538,
    "height_m": 103.5,
    "height_ft": 339.6,
    "what3words": "Josh will provide soon",
    "photos_link": [
      "images/dummy.jpg"
    ]
  },
  {
    "state": "Massachusetts",
    "municipality": "Groveland",
    "name": "Crow Hill",
    "latitude": 42.7751,
    "longitude": -71.0050,
    "height_m": 76.6,
    "height_ft": 251.3,
    "what3words": "Josh will provide soon",
    "photos_link": [
      "images/dummy.jpg"
    ]
  },
  {
    "state": "Massachusetts",
    "municipality": "Georgetown",
    "name": "Baldpate Hill",
    "latitude": 42.7079,
    "longitude": -71.0150,
    "height_m": 106.8,
    "height_ft": 350.4,
    "what3words": "Josh will provide soon",
    "photos_link": [
      "images/dummy.jpg"
    ]
  },
  {
    "state": "Massachusetts",
    "municipality": "Rowley",
    "name": "Prospect Hill",
    "latitude": 42.7050,
    "longitude": -70.8919,
    "height_m": 81.6,
    "height_ft": 267.7,
    "what3words": "Josh will provide soon",
    "photos_link": [
      "images/dummy.jpg"
    ]
  },
  {
    "state": "New Hampshire",
    "municipality": "Hancock",
    "name": "Skatutakee Mountain",
    "latitude": 42.9688,
    "longitude": -72.0362,
    "height_m": 608.8,
    "height_ft": 1997.4,
    "what3words": "Josh will provide soon",
    "photos_link": [
      "images/dummy.jpg"
    ]
  },
  {
    "state": "New Hampshire",
    "municipality": "South Hampton",
    "name": "Chair Hill",
    "latitude": 42.8872,
    "longitude": -70.9482,
    "height_m": 99.9,
    "height_ft": 327.8,
    "what3words": "Josh will provide soon",
    "photos_link": [
      "images/dummy.jpg"
    ]
  },
  {
    "state": "New Hampshire",
    "municipality": "Seabrook",
    "name": "Grape Hill",
    "latitude": 42.8867,
    "longitude": -70.9098,
    "height_m": 68.7,
    "height_ft": 225.4,
    "what3words": "Josh will provide soon",
    "photos_link": [
      "images/dummy.jpg"
    ]
  },
  {
    "state": "Rhode Island",
    "municipality": "Sample Community",
    "name": "Josh will provide soon",
    "latitude": null,
    "longitude": null,
    "height_m": null,
    "height_ft": null,
    "what3words": "Josh will provide soon",
    "photos_link": [
      "images/dummy.jpg"
    ]
  },
  {
    "state": "Vermont",
    "municipality": "Sample Community",
    "name": "Josh will provide soon",
    "latitude": null,
    "longitude": null,
    "height_m": null,
    "height_ft": null,
    "what3words": "Josh will provide soon",
    "photos_link": [
      "images/dummy.jpg"
    ]
  }
]
